[{
	"id": 1,
	"latitude": 44.5416713,
	"longitude": 10.8259022,
	"title": "Lea Ceramiche",
	"abstract": "Produzione e ingrosso piastrelle",
	"address": "Via Cameazzo, 21",
	"zip": "41042",
	"city": "Fiorano Modenese",
	"province": "Modena",
	"provinceCode": "MO",
	"country": "Italia",
	"countryCode": "IT",
	"telephone": "+39 0536 837811",
	"email": "info@ceramichelea.it",
	"website": "https://www.ceramichelea.it/",
	"image": "./img/store-locator/01@2x.jpg",
	"type": 2
}, {
	"id": 2,
	"latitude": 44.5902807,
	"longitude": 10.721454,
	"title": "Lea Ceramiche",
	"abstract": "Negozio di piastrelle ceramiche",
	"address": "Via Statale, 127",
	"zip": "42013",
	"city": "Casalgrande",
	"province": "Reggio Emilia",
	"provinceCode": "RE",
	"country": "Italia",
	"countryCode": "IT",
	"telephone": "+39 0536 837811",
	"email": "info@ceramichelea.it",
	"website": "https://www.ceramichelea.it/",
	"image": "./img/store-locator/02@2x.jpg",
	"type": 3
}, {
	"id": 3,
	"latitude": 45.463838,
	"longitude": 9.1952678,
	"title": "Lea Ceramiche",
	"abstract": "Posatore di piastrelle",
	"address": "Via Durini, 3",
	"zip": "20122",
	"city": "Milano",
	"province": "Milano",
	"provinceCode": "MI",
	"country": "Italia",
	"countryCode": "IT",
	"telephone": "+39 02 7601 1406",
	"email": "info@ceramichelea.it",
	"website": "https://www.ceramichelea.it/",
	"type": 1
}, {
	"id": 4,
	"latitude": 45.5416713,
	"longitude": 11.8259022,
	"title": "Lea Ceramiche",
	"abstract": "Produzione e ingrosso piastrelle",
	"address": "Via Cameazzo, 21",
	"zip": "41042",
	"city": "Fiorano Modenese",
	"province": "Modena",
	"provinceCode": "MO",
	"country": "Italia",
	"countryCode": "IT",
	"telephone": "+39 0536 837811",
	"email": "info@ceramichelea.it",
	"website": "https://www.ceramichelea.it/",
	"type": 2
}, {
	"id": 5,
	"latitude": 45.5902807,
	"longitude": 9.721454,
	"title": "Lea Ceramiche",
	"abstract": "Negozio di piastrelle ceramiche",
	"address": "Via Statale, 127",
	"zip": "42013",
	"city": "Casalgrande",
	"province": "Reggio Emilia",
	"provinceCode": "RE",
	"country": "Italia",
	"countryCode": "IT",
	"telephone": "+39 0536 837811",
	"email": "info@ceramichelea.it",
	"website": "https://www.ceramichelea.it/",
	"type": 3
}, {
	"id": 6,
	"latitude": 44.463838,
	"longitude": 8.1952678,
	"title": "Lea Ceramiche",
	"abstract": "Posatore di piastrelle",
	"address": "Via Durini, 3",
	"zip": "20122",
	"city": "Milano",
	"province": "Milano",
	"provinceCode": "MI",
	"country": "Italia",
	"countryCode": "IT",
	"telephone": "+39 02 7601 1406",
	"email": "info@ceramichelea.it",
	"website": "https://www.ceramichelea.it/",
	"type": 1
}, {
	"id": 7,
	"latitude": 44.5416713,
	"longitude": 9.8259022,
	"title": "Lea Ceramiche",
	"abstract": "Produzione e ingrosso piastrelle",
	"address": "Via Cameazzo, 21",
	"zip": "41042",
	"city": "Fiorano Modenese",
	"province": "Modena",
	"provinceCode": "MO",
	"country": "Italia",
	"countryCode": "IT",
	"telephone": "+39 0536 837811",
	"email": "info@ceramichelea.it",
	"website": "https://www.ceramichelea.it/",
	"type": 2
}, {
	"id": 8,
	"latitude": 43.5902807,
	"longitude": 11.721454,
	"title": "Lea Ceramiche",
	"abstract": "Negozio di piastrelle ceramiche",
	"address": "Via Statale, 127",
	"zip": "42013",
	"city": "Casalgrande",
	"province": "Reggio Emilia",
	"provinceCode": "RE",
	"country": "Italia",
	"countryCode": "IT",
	"telephone": "+39 0536 837811",
	"email": "info@ceramichelea.it",
	"website": "https://www.ceramichelea.it/",
	"type": 3
}, {
	"id": 9,
	"latitude": 44.463838,
	"longitude": 10.1952678,
	"title": "Lea Ceramiche",
	"abstract": "Posatore di piastrelle",
	"address": "Via Durini, 3",
	"zip": "20122",
	"city": "Milano",
	"province": "Milano",
	"provinceCode": "MI",
	"country": "Italia",
	"countryCode": "IT",
	"telephone": "+39 02 7601 1406",
	"email": "info@ceramichelea.it",
	"website": "https://www.ceramichelea.it/",
	"type": 1
}, {
	"id": 10,
	"latitude": 45.5416713,
	"longitude": 11.8259022,
	"title": "Lea Ceramiche",
	"abstract": "Produzione e ingrosso piastrelle",
	"address": "Via Cameazzo, 21",
	"zip": "41042",
	"city": "Fiorano Modenese",
	"province": "Modena",
	"provinceCode": "MO",
	"country": "Italia",
	"countryCode": "IT",
	"telephone": "+39 0536 837811",
	"email": "info@ceramichelea.it",
	"website": "https://www.ceramichelea.it/",
	"type": 2
}, {
	"id": 11,
	"latitude": 42.5902807,
	"longitude": 10.721454,
	"title": "Lea Ceramiche",
	"abstract": "Negozio di piastrelle ceramiche",
	"address": "Via Statale, 127",
	"zip": "42013",
	"city": "Casalgrande",
	"province": "Reggio Emilia",
	"provinceCode": "RE",
	"country": "Italia",
	"countryCode": "IT",
	"telephone": "+39 0536 837811",
	"email": "info@ceramichelea.it",
	"website": "https://www.ceramichelea.it/",
	"type": 3
}, {
	"id": 12,
	"latitude": 44.463838,
	"longitude": 8.1952678,
	"title": "Lea Ceramiche",
	"abstract": "Posatore di piastrelle",
	"address": "Via Durini, 3",
	"zip": "20122",
	"city": "Milano",
	"province": "Milano",
	"provinceCode": "MI",
	"country": "Italia",
	"countryCode": "IT",
	"telephone": "+39 02 7601 1406",
	"email": "info@ceramichelea.it",
	"website": "https://www.ceramichelea.it/",
	"type": 1
}]
